[
  { "name": "Khatib Indoor Basketball Court", "lat": 1.4170, "lon": 103.8264, "region": "north", "keywords": ["khatib", "indoor", "basketball"] },
  { "name": "MPC@Khatib", "lat": 1.4170, "lon": 103.8264, "region": "north", "keywords": ["khatib"] },
  { "name": "SportSG @ Woodlands Costa Rhu", "lat": 1.436897, "lon": 103.786216, "region": "north", "keywords": ["woodlands", "sports", "indoor"] },
  { "name": "Yew Tee Community Club", "lat": 1.394873, "lon": 103.744699, "region": "north", "keywords": ["yew tee", "community", "outdoor"] },
  { "name": "Nee Soon East Park Basketball Court", "lat": 1.429891, "lon": 103.836414, "region": "north", "keywords": ["nee soon", "park"] },
  { "name": "SG Basketball @ Turf City", "lat": 1.417679, "lon": 103.760841, "region": "north", "keywords": ["turf city", "basketball"] },
  { "name": "Vista Park Basketball Court", "lat": 1.42971, "lon": 103.79596, "region": "north", "keywords": ["vista park", "basketball"] },
  { "name": "Sport-In-Precinct @ Wellington Circle", "lat": 1.452137, "lon": 103.822413, "region": "north", "keywords": ["wellington", "precinct", "sport"] },
  { "name": "Block 211A Punggol Walk Court", "lat": 1.405457, "lon": 103.905498, "region": "north", "keywords": ["punggol", "walk", "court"] },
  { "name": "Keat Hong Community Club", "lat": 1.384100, "lon": 103.744965, "region": "north", "keywords": ["keat hong", "community"] },
  { "name": "Bukit Panjang Community Club", "lat": 1.376588, "lon": 103.770701, "region": "north", "keywords": ["bukit panjang", "community"] },
  { "name": "Bukit Panjang Hawker Centre Court", "lat": 1.384192, "lon": 103.761793, "region": "north", "keywords": ["bukit panjang", "hawker"] },
  { "name": "Ang Mo Kio Street 53 Courts", "lat": 1.371290, "lon": 103.851354, "region": "north", "keywords": ["ang mo kio", "street 53"] },
  { "name": "Yishun Park", "lat": 1.428291, "lon": 103.835083, "region": "north", "keywords": ["yishun", "park"] },
  { "name": "Cactus Anytime Sport Centre", "lat": 1.444504, "lon": 103.802417, "region": "north", "keywords": ["cactus", "sport centre"] },
  { "name": "OCBC Arena Outdoor Basketball Court", "lat": 1.304306, "lon": 103.874611, "region": "south", "keywords": ["ocbc", "arena", "basketball"] },
  { "name": "Queenstown Community Centre Basketball Court", "lat": 1.299492, "lon": 103.798336, "region": "south", "keywords": ["queenstown", "community", "basketball"] },
  { "name": "Goodman Arts Centre Basketball Court", "lat": 1.304051, "lon": 103.885002, "region": "south", "keywords": ["goodman", "arts", "basketball"] },
  { "name": "Chinatown Complex Basketball Court", "lat": 1.282421, "lon": 103.844231, "region": "south", "keywords": ["chinatown", "complex", "basketball"] },
  { "name": "Telok Blangah Drive Block 45 Basketball Court", "lat": 1.277851, "lon": 103.809965, "region": "south", "keywords": ["telok blangah", "block 45"] },
  { "name": "Sentosa Siloso Beach Court", "lat": 1.253444, "lon": 103.814208, "region": "south", "keywords": ["sentosa", "siloso", "beach"] },
  { "name": "Tanjong Pagar Basketball Court", "lat": 1.278533, "lon": 103.844797, "region": "south", "keywords": ["tanjong pagar", "basketball"] },
  { "name": "Bedok Community Centre Basketball Court", "lat": 1.327456, "lon": 103.927517, "region": "east", "keywords": ["bedok", "community", "basketball"] },
  { "name": "ActiveSG Pasir Ris Sport Centre", "lat": 1.374088, "lon": 103.951925, "region": "east", "keywords": ["pasir ris", "sports"] },
  { "name": "Our Tampines Hub ActiveSG Community Auditorium", "lat": 1.353377, "lon": 103.940541, "region": "east", "keywords": ["tampines", "hub", "community"] },
  { "name": "SUTD Sports and Recreation Centre", "lat": 1.340175, "lon": 103.963046, "region": "east", "keywords": ["sutd", "sports", "recreation"] },
  { "name": "Millenia Institute Basketball Court", "lat": 1.350722, "lon": 103.740694, "region": "west", "keywords": ["millenia", "institute", "basketball"] },
  { "name": "Bukit Batok West Sports Hall", "lat": 1.346600, "lon": 103.748200, "region": "west", "keywords": ["bukit batok", "sports", "hall"] },
  { "name": "Jurong West Block 629 Basketball Court", "lat": 1.342479, "lon": 103.699674, "region": "west", "keywords": ["jurong west", "block 629", "basketball"] },
  { "name": "Firefly Park Basketball Court", "lat": 1.349414, "lon": 103.739606, "region": "west", "keywords": ["firefly", "park", "basketball"] },
  { "name": "Clementi Block 334 Basketball Court", "lat": 1.315450, "lon": 103.770210, "region": "west", "keywords": ["clementi", "block 334"] },
  { "name": "West Coast Park Basketball Court", "lat": 1.295171, "lon": 103.762914, "region": "west", "keywords": ["west coast", "park", "basketball"] },
  { "name": "Cairnhill Community Club Basketball Court", "lat": 1.310544, "lon": 103.838737, "region": "central", "keywords": ["cairnhill", "community", "basketball"] },
  { "name": "Braddell Heights Community Centre Basketball Court", "lat": 1.351610, "lon": 103.870438, "region": "central", "keywords": ["braddell", "heights", "community"] },
  { "name": "Toa Payoh West Community Centre Basketball Court", "lat": 1.335410, "lon": 103.844841, "region": "central", "keywords": ["toa payoh", "community"] },
  { "name": "Scholar Basketball Academy Barker Road", "lat": 1.324609, "lon": 103.835949, "region": "central", "keywords": ["barker", "academy", "basketball"] },
  { "name": "MOE Evans Sports Hall Basketball Court", "lat": 1.320471, "lon": 103.827669, "region": "central", "keywords": ["moe", "evans", "sports", "basketball"] },
  { "name": "Foot Locker Orchard Basketball Court", "lat": 1.301568, "lon": 103.836982, "region": "central", "keywords": ["orchard", "foot locker", "basketball"] },
  { "name": "Punggol Green Basketball Court", "lat": 1.405555, "lon": 103.903889, "region": "northeast", "keywords": ["punggol", "green", "basketball"] },
  { "name": "Hougang Mall Basketball Court", "lat": 1.372646, "lon": 103.890334, "region": "northeast", "keywords": ["hougang", "mall", "basketball"] },
  { "name": "Sengkang Sports Complex Basketball Court", "lat": 1.395830, "lon": 103.886940, "region": "northeast", "keywords": ["sengkang", "sports", "complex", "basketball"] }
]
